{
	"ciudad": "Zaragoza",
	"comunidad autónoma": "Aragón",
	"provincia": "Zaragoza",
	"latitud": "41.65606",
	"longitud": "-0.87734",
},
{
	"ciudad": "Pamplona",
	"comunidad autónoma": "Navarra",
	"provincia": "Navarra",
	"latitud": "42.81687",
	"longitud": "-1.64323",
},
{
	"ciudad": "Badajoz",
	"comunidad autónoma": "Extremadura",
	"provincia": "Badajoz",
	"latitud": "38.87789",
	"longitud": "-6.97061",
},
{
	"ciudad": "Valencia",
	"comunidad autónoma": "Comunidad Valenciana",
	"provincia": "Valencia",
	"latitud": "39.4702",
	"longitud": "-0.376805",
},
{
	"ciudad": "Sevilla",
	"comunidad autónoma": "Andalucía",
	"provincia": "Sevilla",
	"latitud": "37.3828300",
	"longitud": "-5.9731700",
}